[
  {
    "id": "frankfurt-umut",
    "name": "Umut Moschee Frankfurt",
    "city": "Frankfurt am Main",
    "progress": 58,
    "contact": "Mustafa Demir",
    "phone": "+49 170 4839201",
    "email": "info@umut-frankfurt.de",
    "iban": "DE89370400440532013000",
    "bic": "COBADEFFXXX",
    "address": "Innenstadt, 60311 Frankfurt am Main",
    "holder": "Umut Moschee Frankfurt e.V.",
    "purpose": "Spende Moscheebau Frankfurt",
    "lat": 50.1109,
    "lon": 8.6821
  },
  {
    "id": "offenbach-rahmet",
    "name": "Rahmet Zentrum Offenbach",
    "city": "Offenbach am Main",
    "progress": 72,
    "contact": "Ahmet Yilmaz",
    "phone": "+49 160 9123847",
    "email": "kontakt@rahmet-offenbach.de",
    "iban": "DE44500105175407324931",
    "bic": "INGDDEFFXXX",
    "address": "Innenstadt, 63065 Offenbach",
    "holder": "Rahmet Zentrum Offenbach e.V.",
    "purpose": "Spende Moscheebau Offenbach",
    "lat": 50.0956,
    "lon": 8.7761
  },
  {
    "id": "darmstadt-nur",
    "name": "Nur Camii Darmstadt",
    "city": "Darmstadt",
    "progress": 34,
    "contact": "Mehmet Kaya",
    "phone": "+49 171 8392014",
    "email": "info@nur-darmstadt.de",
    "iban": "DE12500105170648489890",
    "bic": "HELADEF1DAS",
    "address": "Innenstadt, 64283 Darmstadt",
    "holder": "Nur Camii Darmstadt e.V.",
    "purpose": "Spende Moscheebau Darmstadt",
    "lat": 49.8728,
    "lon": 8.6512
  },
  {
    "id": "wiesbaden-huzur",
    "name": "Huzur Zentrum Wiesbaden",
    "city": "Wiesbaden",
    "progress": 49,
    "contact": "Ali Karaca",
    "phone": "+49 173 9023847",
    "email": "info@huzur-wiesbaden.de",
    "iban": "DE75512108001245126199",
    "bic": "NASPDE55XXX",
    "address": "Innenstadt, 65183 Wiesbaden",
    "holder": "Huzur Zentrum Wiesbaden e.V.",
    "purpose": "Spende Moscheebau Wiesbaden",
    "lat": 50.0826,
    "lon": 8.2415
  },
  {
    "id": "mainz-baraka",
    "name": "Baraka Moschee Mainz",
    "city": "Mainz",
    "progress": 63,
    "contact": "Ibrahim Sahin",
    "phone": "+49 162 4938201",
    "email": "info@baraka-mainz.de",
    "iban": "DE40500105175407324932",
    "bic": "INGDDEFFXXX",
    "address": "Innenstadt, 55116 Mainz",
    "holder": "Baraka Moschee Mainz e.V.",
    "purpose": "Spende Moscheebau Mainz",
    "lat": 49.9929,
    "lon": 8.2473
  },
  {
    "id": "hanau-selam",
    "name": "Selam Gemeinde Hanau",
    "city": "Hanau",
    "progress": 81,
    "contact": "Yusuf Aydin",
    "phone": "+49 152 3849201",
    "email": "kontakt@selam-hanau.de",
    "iban": "DE21500500009876543210",
    "bic": "DEUTDEFFXXX",
    "address": "Innenstadt, 63450 Hanau",
    "holder": "Selam Gemeinde Hanau e.V.",
    "purpose": "Spende Moscheebau Hanau",
    "lat": 50.134,
    "lon": 8.916
  },
  {
    "id": "kassel-iman",
    "name": "Iman Zentrum Kassel",
    "city": "Kassel",
    "progress": 27,
    "contact": "Kemal Aslan",
    "phone": "+49 176 8293021",
    "email": "kontakt@iman-kassel.de",
    "iban": "DE60500105170648489891",
    "bic": "HELADEF1KAS",
    "address": "Innenstadt, 34117 Kassel",
    "holder": "Iman Zentrum Kassel e.V.",
    "purpose": "Spende Moscheebau Kassel",
    "lat": 51.3127,
    "lon": 9.4797
  },
  {
    "id": "mannheim-hidayet",
    "name": "Hidayet Camii Mannheim",
    "city": "Mannheim",
    "progress": 76,
    "contact": "Fatih Demir",
    "phone": "+49 155 3829012",
    "email": "info@hidayet-mannheim.de",
    "iban": "DE28500105175407324934",
    "bic": "DEUTDEFFXXX",
    "address": "Innenstadt, 68159 Mannheim",
    "holder": "Hidayet Camii Mannheim e.V.",
    "purpose": "Spende Moscheebau Mannheim",
    "lat": 49.4875,
    "lon": 8.466
  },
  {
    "id": "stuttgart-safa",
    "name": "Safa Moschee Stuttgart",
    "city": "Stuttgart",
    "progress": 69,
    "contact": "Osman Polat",
    "phone": "+49 157 4902381",
    "email": "kontakt@safa-stuttgart.de",
    "iban": "DE90500105170648489892",
    "bic": "SOLADES1STG",
    "address": "Innenstadt, 70173 Stuttgart",
    "holder": "Safa Moschee Stuttgart e.V.",
    "purpose": "Spende Moscheebau Stuttgart",
    "lat": 48.7758,
    "lon": 9.1829
  },
  {
    "id": "koeln-tawhid",
    "name": "Tawhid Zentrum Köln",
    "city": "Köln",
    "progress": 52,
    "contact": "Bilal Acar",
    "phone": "+49 163 5820194",
    "email": "info@tawhid-koeln.de",
    "iban": "DE13500105175407324933",
    "bic": "COLSDE33XXX",
    "address": "Innenstadt, 50667 Köln",
    "holder": "Tawhid Zentrum Köln e.V.",
    "purpose": "Spende Moscheebau Köln",
    "lat": 50.9375,
    "lon": 6.9603
  },
  {
    "id": "duesseldorf-furkan",
    "name": "Furkan Moschee Düsseldorf",
    "city": "Düsseldorf",
    "progress": 44,
    "contact": "Hakan Yildiz",
    "phone": "+49 174 2291048",
    "email": "info@furkan-duesseldorf.de",
    "iban": "DE44500105179933445566",
    "bic": "DUSSDEDDXXX",
    "address": "Innenstadt, 40213 Düsseldorf",
    "holder": "Furkan Moschee Düsseldorf e.V.",
    "purpose": "Spende Moscheebau Düsseldorf",
    "lat": 51.2277,
    "lon": 6.7735
  },
  {
    "id": "essen-ihsan",
    "name": "Ihsan Zentrum Essen",
    "city": "Essen",
    "progress": 61,
    "contact": "Serkan Kaya",
    "phone": "+49 151 8301294",
    "email": "kontakt@ihsan-essen.de",
    "iban": "DE75500105170111223344",
    "bic": "ESSENDEFFXXX",
    "address": "Innenstadt, 45127 Essen",
    "holder": "Ihsan Zentrum Essen e.V.",
    "purpose": "Spende Moscheebau Essen",
    "lat": 51.4556,
    "lon": 7.0116
  },
  {
    "id": "dortmund-nurani",
    "name": "Nurani Moschee Dortmund",
    "city": "Dortmund",
    "progress": 38,
    "contact": "Murat Celik",
    "phone": "+49 159 3201847",
    "email": "info@nurani-dortmund.de",
    "iban": "DE12500105173322110099",
    "bic": "DORTDE33XXX",
    "address": "Innenstadt, 44135 Dortmund",
    "holder": "Nurani Moschee Dortmund e.V.",
    "purpose": "Spende Moscheebau Dortmund",
    "lat": 51.5136,
    "lon": 7.4653
  },
  {
    "id": "bremen-selamet",
    "name": "Selamet Zentrum Bremen",
    "city": "Bremen",
    "progress": 70,
    "contact": "Emre Aydin",
    "phone": "+49 172 5589012",
    "email": "kontakt@selamet-bremen.de",
    "iban": "DE90500105174455667788",
    "bic": "BREMDEBBXXX",
    "address": "Innenstadt, 28195 Bremen",
    "holder": "Selamet Zentrum Bremen e.V.",
    "purpose": "Spende Moscheebau Bremen",
    "lat": 53.0793,
    "lon": 8.8017
  },
  {
    "id": "hamburg-rahma",
    "name": "Rahma Moschee Hamburg",
    "city": "Hamburg",
    "progress": 55,
    "contact": "Hasan Arslan",
    "phone": "+49 176 1203948",
    "email": "info@rahma-hamburg.de",
    "iban": "DE28500105178899001122",
    "bic": "HASPDEHHXXX",
    "address": "Innenstadt, 20095 Hamburg",
    "holder": "Rahma Moschee Hamburg e.V.",
    "purpose": "Spende Moscheebau Hamburg",
    "lat": 53.5511,
    "lon": 9.9937
  },
  {
    "id": "berlin-hidaya",
    "name": "Hidaya Zentrum Berlin",
    "city": "Berlin",
    "progress": 46,
    "contact": "Eren Koc",
    "phone": "+49 170 7741205",
    "email": "kontakt@hidaya-berlin.de",
    "iban": "DE40500105172233445566",
    "bic": "BELADEBEXXX",
    "address": "Mitte, 10117 Berlin",
    "holder": "Hidaya Zentrum Berlin e.V.",
    "purpose": "Spende Moscheebau Berlin",
    "lat": 52.52,
    "lon": 13.405
  },
  {
    "id": "muenchen-fajr",
    "name": "Fajr Moschee München",
    "city": "München",
    "progress": 64,
    "contact": "Sinan Yilmaz",
    "phone": "+49 151 4029183",
    "email": "info@fajr-muenchen.de",
    "iban": "DE75500105176655443322",
    "bic": "BYLADEMMXXX",
    "address": "Innenstadt, 80331 München",
    "holder": "Fajr Moschee München e.V.",
    "purpose": "Spende Moscheebau München",
    "lat": 48.1351,
    "lon": 11.582
  },
  {
    "id": "nuernberg-amanah",
    "name": "Amanah Zentrum Nürnberg",
    "city": "Nürnberg",
    "progress": 29,
    "contact": "Tuncay Demir",
    "phone": "+49 160 4402199",
    "email": "kontakt@amanah-nuernberg.de",
    "iban": "DE12500105170011002233",
    "bic": "NOLADE21NBG",
    "address": "Innenstadt, 90402 Nürnberg",
    "holder": "Amanah Zentrum Nürnberg e.V.",
    "purpose": "Spende Moscheebau Nürnberg",
    "lat": 49.4521,
    "lon": 11.0767
  },
  {
    "id": "leipzig-safa",
    "name": "Safa Moschee Leipzig",
    "city": "Leipzig",
    "progress": 47,
    "contact": "Yakup Sahin",
    "phone": "+49 171 9923104",
    "email": "info@safa-leipzig.de",
    "iban": "DE28500105179900112233",
    "bic": "BELADEBEXXX",
    "address": "Zentrum, 04109 Leipzig",
    "holder": "Safa Moschee Leipzig e.V.",
    "purpose": "Spende Moscheebau Leipzig",
    "lat": 51.3397,
    "lon": 12.3731
  },
  {
    "id": "dresden-ihsan",
    "name": "Ihsan Zentrum Dresden",
    "city": "Dresden",
    "progress": 36,
    "contact": "Cem Kaya",
    "phone": "+49 152 7710284",
    "email": "kontakt@ihsan-dresden.de",
    "iban": "DE90500105173344001122",
    "bic": "DRESDEFFXXX",
    "address": "Altstadt, 01067 Dresden",
    "holder": "Ihsan Zentrum Dresden e.V.",
    "purpose": "Spende Moscheebau Dresden",
    "lat": 51.0504,
    "lon": 13.7373
  },
  {
    "id": "hannover-nur",
    "name": "Nur Zentrum Hannover",
    "city": "Hannover",
    "progress": 73,
    "contact": "Bekir Polat",
    "phone": "+49 157 1102938",
    "email": "info@nur-hannover.de",
    "iban": "DE40500105171122334455",
    "bic": "HANNDE55XXX",
    "address": "Innenstadt, 30159 Hannover",
    "holder": "Nur Zentrum Hannover e.V.",
    "purpose": "Spende Moscheebau Hannover",
    "lat": 52.3759,
    "lon": 9.732
  },
  {
    "id": "bielefeld-rahmet",
    "name": "Rahmet Camii Bielefeld",
    "city": "Bielefeld",
    "progress": 51,
    "contact": "Said Acar",
    "phone": "+49 170 3309122",
    "email": "kontakt@rahmet-bielefeld.de",
    "iban": "DE75500105178811223344",
    "bic": "BIELED33XXX",
    "address": "Innenstadt, 33602 Bielefeld",
    "holder": "Rahmet Camii Bielefeld e.V.",
    "purpose": "Spende Moscheebau Bielefeld",
    "lat": 52.0302,
    "lon": 8.5325
  },
  {
    "id": "muenster-huzur",
    "name": "Huzur Zentrum Münster",
    "city": "Münster",
    "progress": 67,
    "contact": "Omer Koc",
    "phone": "+49 160 9922011",
    "email": "info@huzur-muenster.de",
    "iban": "DE12500105179988776655",
    "bic": "MUNSDE33XXX",
    "address": "Innenstadt, 48143 Münster",
    "holder": "Huzur Zentrum Münster e.V.",
    "purpose": "Spende Moscheebau Münster",
    "lat": 51.9607,
    "lon": 7.6261
  },
  {
    "id": "bonn-emanet",
    "name": "Emanet Moschee Bonn",
    "city": "Bonn",
    "progress": 42,
    "contact": "Furkan Demir",
    "phone": "+49 173 8840123",
    "email": "kontakt@emanet-bonn.de",
    "iban": "DE28500105175566778899",
    "bic": "COLSDE33XXX",
    "address": "Zentrum, 53111 Bonn",
    "holder": "Emanet Moschee Bonn e.V.",
    "purpose": "Spende Moscheebau Bonn",
    "lat": 50.7374,
    "lon": 7.0982
  },
  {
    "id": "freiburg-nurani",
    "name": "Nurani Zentrum Freiburg",
    "city": "Freiburg im Breisgau",
    "progress": 31,
    "contact": "Huseyin Sahin",
    "phone": "+49 151 9102847",
    "email": "info@nurani-freiburg.de",
    "iban": "DE90500105170022334455",
    "bic": "FRSPDE66XXX",
    "address": "Innenstadt, 79098 Freiburg",
    "holder": "Nurani Zentrum Freiburg e.V.",
    "purpose": "Spende Moscheebau Freiburg",
    "lat": 47.999,
    "lon": 7.8421
  },
  {
    "id": "karlsruhe-safa",
    "name": "Safa Moschee Karlsruhe",
    "city": "Karlsruhe",
    "progress": 60,
    "contact": "Metin Kaya",
    "phone": "+49 170 9901123",
    "email": "kontakt@safa-karlsruhe.de",
    "iban": "DE40500105174433221100",
    "bic": "KARLDEFFXXX",
    "address": "Innenstadt, 76133 Karlsruhe",
    "holder": "Safa Moschee Karlsruhe e.V.",
    "purpose": "Spende Moscheebau Karlsruhe",
    "lat": 49.0069,
    "lon": 8.4037
  },
  {
    "id": "saarbruecken-rahma",
    "name": "Rahma Zentrum Saarbrücken",
    "city": "Saarbrücken",
    "progress": 48,
    "contact": "Adnan Aydin",
    "phone": "+49 152 2201938",
    "email": "info@rahma-saarbruecken.de",
    "iban": "DE75500105173300112233",
    "bic": "SALADE55XXX",
    "address": "Innenstadt, 66111 Saarbrücken",
    "holder": "Rahma Zentrum Saarbrücken e.V.",
    "purpose": "Spende Moscheebau Saarbrücken",
    "lat": 49.2402,
    "lon": 6.9969
  },
  {
    "id": "augsburg-iman",
    "name": "Iman Moschee Augsburg",
    "city": "Augsburg",
    "progress": 35,
    "contact": "Harun Polat",
    "phone": "+49 176 5019283",
    "email": "kontakt@iman-augsburg.de",
    "iban": "DE28500105179922334455",
    "bic": "AUGSDE77XXX",
    "address": "Innenstadt, 86150 Augsburg",
    "holder": "Iman Moschee Augsburg e.V.",
    "purpose": "Spende Moscheebau Augsburg",
    "lat": 48.3705,
    "lon": 10.8978
  },
  {
    "id": "ulm-hidayet",
    "name": "Hidayet Zentrum Ulm",
    "city": "Ulm",
    "progress": 74,
    "contact": "Faruk Celik",
    "phone": "+49 160 3302211",
    "email": "info@hidayet-ulm.de",
    "iban": "DE12500105170055667788",
    "bic": "ULMDE55XXX",
    "address": "Innenstadt, 89073 Ulm",
    "holder": "Hidayet Zentrum Ulm e.V.",
    "purpose": "Spende Moscheebau Ulm",
    "lat": 48.4011,
    "lon": 9.9876
  },
  {
    "id": "heidelberg-emanet",
    "name": "Emanet Moschee Heidelberg",
    "city": "Heidelberg",
    "progress": 54,
    "contact": "Ismail Acar",
    "phone": "+49 171 1203948",
    "email": "kontakt@emanet-heidelberg.de",
    "iban": "DE90500105171100998877",
    "bic": "HEIDDEFFXXX",
    "address": "Altstadt, 69117 Heidelberg",
    "holder": "Emanet Moschee Heidelberg e.V.",
    "purpose": "Spende Moscheebau Heidelberg",
    "lat": 49.3988,
    "lon": 8.6724
  },
  {
    "id": "dortmund-rahmet2",
    "name": "Rahmet Zentrum Dortmund",
    "city": "Dortmund",
    "progress": 66,
    "contact": "Nihat Demir",
    "phone": "+49 173 5510293",
    "email": "info@rahmet-dortmund.de",
    "iban": "DE40500105179955667788",
    "bic": "DORTDE33XXX",
    "address": "Innenstadt, 44135 Dortmund",
    "holder": "Rahmet Zentrum Dortmund e.V.",
    "purpose": "Spende Moscheebau Dortmund",
    "lat": 51.5136,
    "lon": 7.4653
  },
  {
    "id": "berlin-furkan2",
    "name": "Furkan Moschee Berlin",
    "city": "Berlin",
    "progress": 40,
    "contact": "Kerem Kaya",
    "phone": "+49 160 7771205",
    "email": "info@furkan-berlin.de",
    "iban": "DE75500105173344556677",
    "bic": "BELADEBEXXX",
    "address": "Mitte, 10117 Berlin",
    "holder": "Furkan Moschee Berlin e.V.",
    "purpose": "Spende Moscheebau Berlin",
    "lat": 52.52,
    "lon": 13.405
  },
  {
    "id": "hamburg-nur2",
    "name": "Nur Zentrum Hamburg",
    "city": "Hamburg",
    "progress": 62,
    "contact": "Selim Yildiz",
    "phone": "+49 152 9910022",
    "email": "kontakt@nur-hamburg.de",
    "iban": "DE28500105170099887766",
    "bic": "HASPDEHHXXX",
    "address": "Innenstadt, 20095 Hamburg",
    "holder": "Nur Zentrum Hamburg e.V.",
    "purpose": "Spende Moscheebau Hamburg",
    "lat": 53.5511,
    "lon": 9.9937
  }
]